transforms:
- header:
    stamp:
      sec: 1690980105
      nanosec: 264638537
    frame_id: map
  child_frame_id: odom
  transform:
    translation:
      x: 8.899484024139444
      y: -12.687455406489178
      z: 0.0
    rotation:
      x: -0.0
      y: -0.0
      z: 0.5313090443274555
      w: 0.8471780801082178
---
transforms:
- header:
    stamp:
      sec: 1690980105
      nanosec: 66025018
    frame_id: velodyne
  child_frame_id: liosam_map
  transform:
    translation:
      x: -3.4475015095899146
      y: 26.105862307174327
      z: 0.5912222581427689
    rotation:
      x: 0.014213261483751577
      y: 0.031787102935729554
      z: -0.14642264587575718
      w: 0.9886091098405327
---
transforms:
- header:
    stamp:
      sec: 1690980105
      nanosec: 61689434
    frame_id: odom
  child_frame_id: base_link
  transform:
    translation:
      x: 24.516211480327136
      y: -6.2144178697304
      z: 0.0
    rotation:
      x: 0.0
      y: 0.0
      z: 0.26448191386933584
      w: 0.9643906455560491
---
transforms:
- header:
    stamp:
      sec: 1690980105
      nanosec: 50920448
    frame_id: liosam_map
  child_frame_id: liosam_odom
  transform:
    translation:
      x: 0.0
      y: 0.0
      z: 0.0
    rotation:
      x: 0.0
      y: 0.0
      z: 0.0
      w: 1.0
---
transforms:
- header:
    stamp:
      sec: 1690980105
      nanosec: 50920448
    frame_id: liosam_odom
  child_frame_id: liosam_base_link
  transform:
    translation:
      x: 10.92766284942627
      y: -23.964250564575195
      z: 0.5942437052726746
    rotation:
      x: 5.440410102149e-311
      y: -9.0615162634228e-310
      z: 6.1420325571993e-311
      w: 1.0
---
transforms:
- header:
    stamp:
      sec: 1690980105
      nanosec: 76089382
    frame_id: velodyne
  child_frame_id: liosam_map
  transform:
    translation:
      x: -3.4475015095899146
      y: 26.105862307174327
      z: 0.5912222581427689
    rotation:
      x: 0.014213261483751577
      y: 0.031787102935729554
      z: -0.14642264587575718
      w: 0.9886091098405327
---
transforms:
- header:
    stamp:
      sec: 1690980105
      nanosec: 284636463
    frame_id: map
  child_frame_id: odom
  transform:
    translation:
      x: 8.899484024139444
      y: -12.687455406489178
      z: 0.0
    rotation:
      x: -0.0
      y: -0.0
      z: 0.5313090443274555
      w: 0.8471780801082178
---
transforms:
- header:
    stamp:
      sec: 1690980105
      nanosec: 60940288
    frame_id: liosam_map
  child_frame_id: liosam_odom
  transform:
    translation:
      x: 0.0
      y: 0.0
      z: 0.0
    rotation:
      x: 0.0
      y: 0.0
      z: 0.0
      w: 1.0
---
transforms:
- header:
    stamp:
      sec: 1690980105
      nanosec: 515479088
    frame_id: map
  child_frame_id: liosam_odom
  transform:
    translation:
      x: -12.662888162460789
      y: -11.148655332154714
      z: -0.5851134941819452
    rotation:
      x: -5.6467182510469e-310
      y: 7.2994726865825e-310
      z: 0.5547521121319965
      w: 0.8320156813937396
---
transforms:
- header:
    stamp:
      sec: 1690980105
      nanosec: 60940288
    frame_id: liosam_odom
  child_frame_id: liosam_base_link
  transform:
    translation:
      x: 10.928478240966797
      y: -23.963829040527344
      z: 0.5944690704345703
    rotation:
      x: 5.428054140298e-311
      y: -9.06071313465936e-310
      z: 6.134521228955e-311
      w: 1.0
---
transforms:
- header:
    stamp:
      sec: 1690980105
      nanosec: 86028575
    frame_id: velodyne
  child_frame_id: liosam_map
  transform:
    translation:
      x: -3.4475015095899146
      y: 26.105862307174327
      z: 0.5912222581427689
    rotation:
      x: 0.014213261483751577
      y: 0.031787102935729554
      z: -0.14642264587575718
      w: 0.9886091098405327
---
transforms:
- header:
    stamp:
      sec: 1690980105
      nanosec: 70956288
    frame_id: liosam_map
  child_frame_id: liosam_odom
  transform:
    translation:
      x: 0.0
      y: 0.0
      z: 0.0
    rotation:
      x: 0.0
      y: 0.0
      z: 0.0
      w: 1.0
---
transforms:
- header:
    stamp:
      sec: 1690980105
      nanosec: 70956288
    frame_id: liosam_odom
  child_frame_id: liosam_base_link
  transform:
    translation:
      x: 10.929281234741211
      y: -23.963380813598633
      z: 0.5946819186210632
    rotation:
      x: 5.411751009869e-311
      y: -9.0594778085936e-310
      z: 6.136725436214e-311
      w: 1.0
---
transforms:
- header:
    stamp:
      sec: 1690980105
      nanosec: 96062660
    frame_id: velodyne
  child_frame_id: liosam_map
  transform:
    translation:
      x: -3.4475015095899146
      y: 26.105862307174327
      z: 0.5912222581427689
    rotation:
      x: 0.014213261483751577
      y: 0.031787102935729554
      z: -0.14642264587575718
      w: 0.9886091098405327
---
transforms:
- header:
    stamp:
      sec: 1690980105
      nanosec: 80974592
    frame_id: liosam_map
  child_frame_id: liosam_odom
  transform:
    translation:
      x: 0.0
      y: 0.0
      z: 0.0
    rotation:
      x: 0.0
      y: 0.0
      z: 0.0
      w: 1.0
---
transforms:
- header:
    stamp:
      sec: 1690980105
      nanosec: 80974592
    frame_id: liosam_odom
  child_frame_id: liosam_base_link
  transform:
    translation:
      x: 10.930078506469727
      y: -23.962915420532227
      z: 0.5948907136917114
    rotation:
      x: 5.3935791594666e-311
      y: -9.0581487915606e-310
      z: 6.1425102377845e-311
      w: 1.0
---
transforms:
- header:
    stamp:
      sec: 1690980105
      nanosec: 304635652
    frame_id: map
  child_frame_id: odom
  transform:
    translation:
      x: 8.899484024139444
      y: -12.687455406489178
      z: 0.0
    rotation:
      x: -0.0
      y: -0.0
      z: 0.5313090443274555
      w: 0.8471780801082178
---
transforms:
- header:
    stamp:
      sec: 1690980105
      nanosec: 106089115
    frame_id: velodyne
  child_frame_id: liosam_map
  transform:
    translation:
      x: -3.4475015095899146
      y: 26.105862307174327
      z: 0.5912222581427689
    rotation:
      x: 0.014213261483751577
      y: 0.031787102935729554
      z: -0.14642264587575718
      w: 0.9886091098405327
---
transforms:
- header:
    stamp:
      sec: 1690980104
      nanosec: 611969233
    frame_id: liosam_odom
  child_frame_id: lidar_link
  transform:
    translation:
      x: 10.880877494812012
      y: -23.981182098388672
      z: 0.5939223170280457
    rotation:
      x: -0.014151375844119674
      y: -0.032381112886850305
      z: 0.1454302438347339
      w: 0.9887371977770926
---
transforms:
- header:
    stamp:
      sec: 1690980105
      nanosec: 101689434
    frame_id: odom
  child_frame_id: base_link
  transform:
    translation:
      x: 24.519995914318812
      y: -6.212173307554242
      z: 0.0
    rotation:
      x: 0.0
      y: 0.0
      z: 0.26448191386933584
      w: 0.9643906455560491
---
transforms:
- header:
    stamp:
      sec: 1690980105
      nanosec: 91000576
    frame_id: liosam_map
  child_frame_id: liosam_odom
  transform:
    translation:
      x: 0.0
      y: 0.0
      z: 0.0
    rotation:
      x: 0.0
      y: 0.0
      z: 0.0
      w: 1.0
---
transforms:
- header:
    stamp:
      sec: 1690980105
      nanosec: 91000576
    frame_id: liosam_odom
  child_frame_id: liosam_base_link
  transform:
    translation:
      x: 10.936538696289062
      y: -23.9699649810791
      z: 0.5926809310913086
    rotation:
      x: 5.520504517905e-311
      y: -9.06798658695835e-310
      z: 6.200744294387e-311
      w: 1.0
---
transforms:
- header:
    stamp:
      sec: 1690980105
      nanosec: 101016576
    frame_id: liosam_map
  child_frame_id: liosam_odom
  transform:
    translation:
      x: 0.0
      y: 0.0
      z: 0.0
    rotation:
      x: 0.0
      y: 0.0
      z: 0.0
      w: 1.0
---
transforms:
- header:
    stamp:
      sec: 1690980105
      nanosec: 101016576
    frame_id: liosam_odom
  child_frame_id: liosam_base_link
  transform:
    translation:
      x: 10.93736457824707
      y: -23.96952247619629
      z: 0.5929036140441895
    rotation:
      x: 5.5115223011655e-311
      y: -9.0673260347753e-310
      z: 6.197544683032e-311
      w: 1.0
---
transforms:
- header:
    stamp:
      sec: 1690980105
      nanosec: 117656946
    frame_id: velodyne
  child_frame_id: liosam_map
  transform:
    translation:
      x: -3.51478882637837
      y: 26.098589879423013
      z: 0.5943058332984936
    rotation:
      x: 0.014151375844119674
      y: 0.032381112886850305
      z: -0.1454302438347339
      w: 0.9887371977770926
---
transforms:
- header:
    stamp:
      sec: 1690980105
      nanosec: 125413621
    frame_id: base_arm
  child_frame_id: arm_link_1
  transform:
    translation:
      x: 0.0
      y: -0.039
      z: 0.0
    rotation:
      x: 0.5097995464615483
      y: -0.49000451265356093
      z: 0.49000264005857086
      w: 0.5098013463520639
- header:
    stamp:
      sec: 1690980105
      nanosec: 125413621
    frame_id: arm_link_1
  child_frame_id: arm_link_2
  transform:
    translation:
      x: 0.03
      y: 0.0
      z: 0.0725
    rotation:
      x: -0.3527912983833576
      y: -0.6128132965165898
      z: 0.3527922532972001
      w: 0.6128097497681799
- header:
    stamp:
      sec: 1690980105
      nanosec: 125413621
    frame_id: arm_link_2
  child_frame_id: arm_link_3
  transform:
    translation:
      x: 0.0
      y: -0.5545
      z: 0.0
    rotation:
      x: 0.695862120397292
      y: 0.12560949346698674
      z: 0.6958595822806931
      w: -0.12560894194002015
- header:
    stamp:
      sec: 1690980105
      nanosec: 125413621
    frame_id: arm_link_3
  child_frame_id: arm_link_4
  transform:
    translation:
      x: 0.128
      y: -0.0115
      z: 0.438
    rotation:
      x: -0.4071226869191324
      y: -0.4071211914767477
      z: -0.5781461358500098
      w: 0.5781440122045732
- header:
    stamp:
      sec: 1690980105
      nanosec: 125413621
    frame_id: chassis_link
  child_frame_id: flipper_link
  transform:
    translation:
      x: -0.032
      y: 0.0
      z: -0.1
    rotation:
      x: 0.0
      y: -0.19082252441973235
      z: 0.0
      w: 0.9816245535713135
- header:
    stamp:
      sec: 1690980105
      nanosec: 125413621
    frame_id: chassis_link
  child_frame_id: flipper_link_mimic
  transform:
    translation:
      x: -0.47
      y: 0.0
      z: -0.1
    rotation:
      x: 0.0
      y: -0.08820522255704558
      z: 0.0
      w: 0.996102323415452
---
transforms:
- header:
    stamp:
      sec: 1690980105
      nanosec: 327152856
    frame_id: map
  child_frame_id: odom
  transform:
    translation:
      x: 8.899484024139444
      y: -12.687455406489178
      z: 0.0
    rotation:
      x: -0.0
      y: -0.0
      z: 0.5313090443274555
      w: 0.8471780801082178
---
transforms:
- header:
    stamp:
      sec: 1690980105
      nanosec: 126116752
    frame_id: velodyne
  child_frame_id: liosam_map
  transform:
    translation:
      x: -3.51478882637837
      y: 26.098589879423013
      z: 0.5943058332984936
    rotation:
      x: 0.014151375844119674
      y: 0.032381112886850305
      z: -0.1454302438347339
      w: 0.9887371977770926
---
transforms:
- header:
    stamp:
      sec: 1690980105
      nanosec: 111034368
    frame_id: liosam_map
  child_frame_id: liosam_odom
  transform:
    translation:
      x: 0.0
      y: 0.0
      z: 0.0
    rotation:
      x: 0.0
      y: 0.0
      z: 0.0
      w: 1.0
---
transforms:
- header:
    stamp:
      sec: 1690980105
      nanosec: 111034368
    frame_id: liosam_odom
  child_frame_id: liosam_base_link
  transform:
    translation:
      x: 10.938206672668457
      y: -23.96907615661621
      z: 0.5931355953216553
    rotation:
      x: 5.4974051823286e-311
      y: -9.0663317011402e-310
      z: 6.190984979722e-311
      w: 1.0
---
transforms:
- header:
    stamp:
      sec: 1690980105
      nanosec: 515479088
    frame_id: map
  child_frame_id: liosam_odom
  transform:
    translation:
      x: -12.662888162460789
      y: -11.148655332154714
      z: -0.5851134941819452
    rotation:
      x: -5.6467182510469e-310
      y: 7.2994726865825e-310
      z: 0.5547521121319965
      w: 0.8320156813937396
---
transforms:
- header:
    stamp:
      sec: 1690980105
      nanosec: 140335083
    frame_id: velodyne
  child_frame_id: liosam_map
  transform:
    translation:
      x: -3.51478882637837
      y: 26.098589879423013
      z: 0.5943058332984936
    rotation:
      x: 0.014151375844119674
      y: 0.032381112886850305
      z: -0.1454302438347339
      w: 0.9887371977770926
---
transforms:
- header:
    stamp:
      sec: 1690980105
      nanosec: 121055488
    frame_id: liosam_map
  child_frame_id: liosam_odom
  transform:
    translation:
      x: 0.0
      y: 0.0
      z: 0.0
    rotation:
      x: 0.0
      y: 0.0
      z: 0.0
      w: 1.0
---
transforms:
- header:
    stamp:
      sec: 1690980105
      nanosec: 121055488
    frame_id: liosam_odom
  child_frame_id: liosam_base_link
  transform:
    translation:
      x: 10.939057350158691
      y: -23.968612670898438
      z: 0.5933665037155151
    rotation:
      x: 5.4792207162703e-311
      y: -9.0651808903618e-310
      z: 6.1888865957816e-311
      w: 1.0
---
transforms:
- header:
    stamp:
      sec: 1690980105
      nanosec: 344638621
    frame_id: map
  child_frame_id: odom
  transform:
    translation:
      x: 8.899484024139444
      y: -12.687455406489178
      z: 0.0
    rotation:
      x: -0.0
      y: -0.0
      z: 0.5313090443274555
      w: 0.8471780801082178
---
transforms:
- header:
    stamp:
      sec: 1690980105
      nanosec: 146009683
    frame_id: velodyne
  child_frame_id: liosam_map
  transform:
    translation:
      x: -3.51478882637837
      y: 26.098589879423013
      z: 0.5943058332984936
    rotation:
      x: 0.014151375844119674
      y: 0.032381112886850305
      z: -0.1454302438347339
      w: 0.9887371977770926
---
transforms:
- header:
    stamp:
      sec: 1690980105
      nanosec: 131071488
    frame_id: liosam_map
  child_frame_id: liosam_odom
  transform:
    translation:
      x: 0.0
      y: 0.0
      z: 0.0
    rotation:
      x: 0.0
      y: 0.0
      z: 0.0
      w: 1.0
---
transforms:
- header:
    stamp:
      sec: 1690980105
      nanosec: 131071488
    frame_id: liosam_odom
  child_frame_id: liosam_base_link
  transform:
    translation:
      x: 10.93990707397461
      y: -23.968137741088867
      z: 0.5935801267623901
    rotation:
      x: 5.460174875186e-311
      y: -9.0640095186936e-310
      z: 6.193888386172e-311
      w: 1.0
---
transforms:
- header:
    stamp:
      sec: 1690980105
      nanosec: 141689434
    frame_id: odom
  child_frame_id: base_link
  transform:
    translation:
      x: 24.52378034831049
      y: -6.209928745378083
      z: 0.0
    rotation:
      x: 0.0
      y: 0.0
      z: 0.26448191386933584
      w: 0.9643906455560491
---
transforms:
- header:
    stamp:
      sec: 1690980105
      nanosec: 156002044
    frame_id: velodyne
  child_frame_id: liosam_map
  transform:
    translation:
      x: -3.51478882637837
      y: 26.098589879423013
      z: 0.5943058332984936
    rotation:
      x: 0.014151375844119674
      y: 0.032381112886850305
      z: -0.1454302438347339
      w: 0.9887371977770926
---
transforms:
- header:
    stamp:
      sec: 1690980105
      nanosec: 141089280
    frame_id: liosam_map
  child_frame_id: liosam_odom
  transform:
    translation:
      x: 0.0
      y: 0.0
      z: 0.0
    rotation:
      x: 0.0
      y: 0.0
      z: 0.0
      w: 1.0
---
transforms:
- header:
    stamp:
      sec: 1690980105
      nanosec: 141089280
    frame_id: liosam_odom
  child_frame_id: liosam_base_link
  transform:
    translation:
      x: 10.940741539001465
      y: -23.967662811279297
      z: 0.5937663316726685
    rotation:
      x: 5.4474832586193e-311
      y: -9.06329096367526e-310
      z: 6.2018636391923e-311
      w: 1.0
---
transforms:
- header:
    stamp:
      sec: 1690980105
      nanosec: 364660869
    frame_id: map
  child_frame_id: odom
  transform:
    translation:
      x: 8.899484024139444
      y: -12.687455406489178
      z: 0.0
    rotation:
      x: -0.0
      y: -0.0
      z: 0.5313090443274555
      w: 0.8471780801082178
---
transforms:
- header:
    stamp:
      sec: 1690980105
      nanosec: 165966749
    frame_id: velodyne
  child_frame_id: liosam_map
  transform:
    translation:
      x: -3.51478882637837
      y: 26.098589879423013
      z: 0.5943058332984936
    rotation:
      x: 0.014151375844119674
      y: 0.032381112886850305
      z: -0.1454302438347339
      w: 0.9887371977770926
---
transforms:
- header:
    stamp:
      sec: 1690980105
      nanosec: 151109120
    frame_id: liosam_map
  child_frame_id: liosam_odom
  transform:
    translation:
      x: 0.0
      y: 0.0
      z: 0.0
    rotation:
      x: 0.0
      y: 0.0
      z: 0.0
      w: 1.0
---
transforms:
- header:
    stamp:
      sec: 1690980105
      nanosec: 151109120
    frame_id: liosam_odom
  child_frame_id: liosam_base_link
  transform:
    translation:
      x: 10.941560745239258
      y: -23.967193603515625
      z: 0.5939220786094666
    rotation:
      x: 5.445776981876e-311
      y: -9.0634318212902e-310
      z: 6.2099190960134e-311
      w: 1.0
---
transforms:
- header:
    stamp:
      sec: 1690980105
      nanosec: 150757366
    frame_id: arm_link_5
  child_frame_id: Gripper
  transform:
    translation:
      x: 0.02025
      y: 0.034974
      z: 0.137
    rotation:
      x: 0.0
      y: 0.0
      z: 0.9860315669009099
      w: 0.1665585454875748
- header:
    stamp:
      sec: 1690980105
      nanosec: 150757366
    frame_id: arm_link_4
  child_frame_id: arm_link_5
  transform:
    translation:
      x: 0.087
      y: 0.0
      z: -0.0015
    rotation:
      x: 0.6213951242304179
      y: 0.33744619746741156
      z: 0.6213928417228686
      w: 0.33744495796059343
- header:
    stamp:
      sec: 1690980105
      nanosec: 150757366
    frame_id: arm_link_5
  child_frame_id: Gripper2
  transform:
    translation:
      x: 0.02025
      y: -0.035174
      z: 0.137
    rotation:
      x: 0.0
      y: 0.0
      z: 0.9860315669009099
      w: 0.1665585454875748
- header:
    stamp:
      sec: 1690980105
      nanosec: 150757366
    frame_id: arm_link_5
  child_frame_id: Gripper3
  transform:
    translation:
      x: -0.0405
      y: -0.00010001
      z: 0.137
    rotation:
      x: 0.0
      y: 0.0
      z: 0.9860315669009099
      w: 0.1665585454875748
---
transforms:
- header:
    stamp:
      sec: 1690980105
      nanosec: 176073074
    frame_id: velodyne
  child_frame_id: liosam_map
  transform:
    translation:
      x: -3.51478882637837
      y: 26.098589879423013
      z: 0.5943058332984936
    rotation:
      x: 0.014151375844119674
      y: 0.032381112886850305
      z: -0.1454302438347339
      w: 0.9887371977770926
---
transforms:
- header:
    stamp:
      sec: 1690980105
      nanosec: 161124608
    frame_id: liosam_map
  child_frame_id: liosam_odom
  transform:
    translation:
      x: 0.0
      y: 0.0
      z: 0.0
    rotation:
      x: 0.0
      y: 0.0
      z: 0.0
      w: 1.0
---
transforms:
- header:
    stamp:
      sec: 1690980105
      nanosec: 161124608
    frame_id: liosam_odom
  child_frame_id: liosam_base_link
  transform:
    translation:
      x: 10.94236946105957
      y: -23.966716766357422
      z: 0.5940492153167725
    rotation:
      x: 5.4434284626485e-311
      y: -9.0635343915794e-310
      z: 6.223184647907e-311
      w: 1.0
---
transforms:
- header:
    stamp:
      sec: 1690980105
      nanosec: 384632672
    frame_id: map
  child_frame_id: odom
  transform:
    translation:
      x: 8.899484024139444
      y: -12.687455406489178
      z: 0.0
    rotation:
      x: -0.0
      y: -0.0
      z: 0.5313090443274555
      w: 0.8471780801082178
---
transforms:
- header:
    stamp:
      sec: 1690980105
      nanosec: 616519928
    frame_id: map
  child_frame_id: liosam_odom
  transform:
    translation:
      x: -12.662888162460789
      y: -11.148655332154714
      z: -0.5851134941819452
    rotation:
      x: -5.6467182510469e-310
      y: 7.2994726865825e-310
      z: 0.5547521121319965
      w: 0.8320156813937396
---
transforms:
- header:
    stamp:
      sec: 1690980105
      nanosec: 185989856
    frame_id: velodyne
  child_frame_id: liosam_map
  transform:
    translation:
      x: -3.51478882637837
      y: 26.098589879423013
      z: 0.5943058332984936
    rotation:
      x: 0.014151375844119674
      y: 0.032381112886850305
      z: -0.1454302438347339
      w: 0.9887371977770926
---
transforms:
- header:
    stamp:
      sec: 1690980105
      nanosec: 171142400
    frame_id: liosam_map
  child_frame_id: liosam_odom
  transform:
    translation:
      x: 0.0
      y: 0.0
      z: 0.0
    rotation:
      x: 0.0
      y: 0.0
      z: 0.0
      w: 1.0
---
transforms:
- header:
    stamp:
      sec: 1690980105
      nanosec: 181689434
    frame_id: odom
  child_frame_id: base_link
  transform:
    translation:
      x: 24.527564782302164
      y: -6.207684183201925
      z: 0.0
    rotation:
      x: 0.0
      y: 0.0
      z: 0.26448191386933584
      w: 0.9643906455560491
---
transforms:
- header:
    stamp:
      sec: 1690980105
      nanosec: 171142400
    frame_id: liosam_odom
  child_frame_id: liosam_base_link
  transform:
    translation:
      x: 10.943166732788086
      y: -23.966211318969727
      z: 0.5941577553749084
    rotation:
      x: 5.436137857943e-311
      y: -9.06310954993673e-310
      z: 6.2482983841896e-311
      w: 1.0
---
transforms:
- header:
    stamp:
      sec: 1690980105
      nanosec: 195990085
    frame_id: velodyne
  child_frame_id: liosam_map
  transform:
    translation:
      x: -3.51478882637837
      y: 26.098589879423013
      z: 0.5943058332984936
    rotation:
      x: 0.014151375844119674
      y: 0.032381112886850305
      z: -0.1454302438347339
      w: 0.9887371977770926
---
transforms:
- header:
    stamp:
      sec: 1690980105
      nanosec: 181162240
    frame_id: liosam_map
  child_frame_id: liosam_odom
  transform:
    translation:
      x: 0.0
      y: 0.0
      z: 0.0
    rotation:
      x: 0.0
      y: 0.0
      z: 0.0
      w: 1.0
---
transforms:
- header:
    stamp:
      sec: 1690980105
      nanosec: 181162240
    frame_id: liosam_odom
  child_frame_id: liosam_base_link
  transform:
    translation:
      x: 10.943961143493652
      y: -23.965681076049805
      z: 0.5942643284797668
    rotation:
      x: 5.42230913e-311
      y: -9.06210663335254e-310
      z: 6.2811174708344e-311
      w: 1.0
---
transforms:
- header:
    stamp:
      sec: 1690980105
      nanosec: 404630328
    frame_id: map
  child_frame_id: odom
  transform:
    translation:
      x: 8.899484024139444
      y: -12.687455406489178
      z: 0.0
    rotation:
      x: -0.0
      y: -0.0
      z: 0.5313090443274555
      w: 0.8471780801082178
---
transforms:
- header:
    stamp:
      sec: 1690980105
      nanosec: 205956935
    frame_id: velodyne
  child_frame_id: liosam_map
  transform:
    translation:
      x: -3.51478882637837
      y: 26.098589879423013
      z: 0.5943058332984936
    rotation:
      x: 0.014151375844119674
      y: 0.032381112886850305
      z: -0.1454302438347339
      w: 0.9887371977770926
---
transforms:
- header:
    stamp:
      sec: 1690980105
      nanosec: 191177984
    frame_id: liosam_map
  child_frame_id: liosam_odom
  transform:
    translation:
      x: 0.0
      y: 0.0
      z: 0.0
    rotation:
      x: 0.0
      y: 0.0
      z: 0.0
      w: 1.0
---
transforms:
- header:
    stamp:
      sec: 1690980105
      nanosec: 191177984
    frame_id: liosam_odom
  child_frame_id: liosam_base_link
  transform:
    translation:
      x: 10.944762229919434
      y: -23.96514892578125
      z: 0.5943913459777832
    rotation:
      x: 5.4046186460993e-311
      y: -9.06085580939627e-310
      z: 6.3091521868125e-311
      w: 1.0
---
transforms:
- header:
    stamp:
      sec: 1690980105
      nanosec: 216015338
    frame_id: velodyne
  child_frame_id: liosam_map
  transform:
    translation:
      x: -3.51478882637837
      y: 26.098589879423013
      z: 0.5943058332984936
    rotation:
      x: 0.014151375844119674
      y: 0.032381112886850305
      z: -0.1454302438347339
      w: 0.9887371977770926
---
transforms:
- header:
    stamp:
      sec: 1690980105
      nanosec: 201195776
    frame_id: liosam_map
  child_frame_id: liosam_odom
  transform:
    translation:
      x: 0.0
      y: 0.0
      z: 0.0
    rotation:
      x: 0.0
      y: 0.0
      z: 0.0
      w: 1.0
---
transforms:
- header:
    stamp:
      sec: 1690980105
      nanosec: 201195776
    frame_id: liosam_odom
  child_frame_id: liosam_base_link
  transform:
    translation:
      x: 10.94558334350586
      y: -23.964643478393555
      z: 0.5945502519607544
    rotation:
      x: 5.3932792789366e-311
      y: -9.0599981666839e-310
      z: 6.3207444450026e-311
      w: 1.0
---
transforms:
- header:
    stamp:
      sec: 1690980105
      nanosec: 424667681
    frame_id: map
  child_frame_id: odom
  transform:
    translation:
      x: 8.899484024139444
      y: -12.687455406489178
      z: 0.0
    rotation:
      x: -0.0
      y: -0.0
      z: 0.5313090443274555
      w: 0.8471780801082178
---
transforms:
- header:
    stamp:
      sec: 1690980105
      nanosec: 225383728
    frame_id: base_arm
  child_frame_id: arm_link_1
  transform:
    translation:
      x: 0.0
      y: -0.039
      z: 0.0
    rotation:
      x: 0.5097995464615483
      y: -0.49000451265356093
      z: 0.49000264005857086
      w: 0.5098013463520639
- header:
    stamp:
      sec: 1690980105
      nanosec: 225383728
    frame_id: arm_link_1
  child_frame_id: arm_link_2
  transform:
    translation:
      x: 0.03
      y: 0.0
      z: 0.0725
    rotation:
      x: -0.3527912983833576
      y: -0.6128132965165898
      z: 0.3527922532972001
      w: 0.6128097497681799
- header:
    stamp:
      sec: 1690980105
      nanosec: 225383728
    frame_id: arm_link_2
  child_frame_id: arm_link_3
  transform:
    translation:
      x: 0.0
      y: -0.5545
      z: 0.0
    rotation:
      x: 0.695862120397292
      y: 0.12560949346698674
      z: 0.6958595822806931
      w: -0.12560894194002015
- header:
    stamp:
      sec: 1690980105
      nanosec: 225383728
    frame_id: arm_link_3
  child_frame_id: arm_link_4
  transform:
    translation:
      x: 0.128
      y: -0.0115
      z: 0.438
    rotation:
      x: -0.4071226869191324
      y: -0.4071211914767477
      z: -0.5781461358500098
      w: 0.5781440122045732
- header:
    stamp:
      sec: 1690980105
      nanosec: 225383728
    frame_id: chassis_link
  child_frame_id: flipper_link
  transform:
    translation:
      x: -0.032
      y: 0.0
      z: -0.1
    rotation:
      x: 0.0
      y: -0.19082252441973235
      z: 0.0
      w: 0.9816245535713135
- header:
    stamp:
      sec: 1690980105
      nanosec: 225383728
    frame_id: chassis_link
  child_frame_id: flipper_link_mimic
  transform:
    translation:
      x: -0.47
      y: 0.0
      z: -0.1
    rotation:
      x: 0.0
      y: -0.08820522255704558
      z: 0.0
      w: 0.996102323415452
---
transforms:
- header:
    stamp:
      sec: 1690980105
      nanosec: 221689434
    frame_id: odom
  child_frame_id: base_link
  transform:
    translation:
      x: 24.53134921629384
      y: -6.205439621025767
      z: 0.0
    rotation:
      x: 0.0
      y: 0.0
      z: 0.26448191386933584
      w: 0.9643906455560491
---
transforms:
- header:
    stamp:
      sec: 1690980105
      nanosec: 211215616
    frame_id: liosam_map
  child_frame_id: liosam_odom
  transform:
    translation:
      x: 0.0
      y: 0.0
      z: 0.0
    rotation:
      x: 0.0
      y: 0.0
      z: 0.0
      w: 1.0
---
transforms:
- header:
    stamp:
      sec: 1690980105
      nanosec: 211215616
    frame_id: liosam_odom
  child_frame_id: liosam_base_link
  transform:
    translation:
      x: 10.94642448425293
      y: -23.964162826538086
      z: 0.5947344899177551
    rotation:
      x: 5.385983914872e-311
      y: -9.05947426970226e-310
      z: 6.319077048525e-311
      w: 1.0
---
transforms:
- header:
    stamp:
      sec: 1690980105
      nanosec: 226039648
    frame_id: velodyne
  child_frame_id: liosam_map
  transform:
    translation:
      x: -3.51478882637837
      y: 26.098589879423013
      z: 0.5943058332984936
    rotation:
      x: 0.014151375844119674
      y: 0.032381112886850305
      z: -0.1454302438347339
      w: 0.9887371977770926
---
transforms:
- header:
    stamp:
      sec: 1690980105
      nanosec: 616519928
    frame_id: map
  child_frame_id: liosam_odom
  transform:
    translation:
      x: -12.662888162460789
      y: -11.148655332154714
      z: -0.5851134941819452
    rotation:
      x: -5.6467182510469e-310
      y: 7.2994726865825e-310
      z: 0.5547521121319965
      w: 0.8320156813937396
---
transforms:
- header:
    stamp:
      sec: 1690980105
      nanosec: 236052274
    frame_id: velodyne
  child_frame_id: liosam_map
  transform:
    translation:
      x: -3.51478882637837
      y: 26.098589879423013
      z: 0.5943058332984936
    rotation:
      x: 0.014151375844119674
      y: 0.032381112886850305
      z: -0.1454302438347339
      w: 0.9887371977770926
---
transforms:
- header:
    stamp:
      sec: 1690980105
      nanosec: 221231872
    frame_id: liosam_map
  child_frame_id: liosam_odom
  transform:
    translation:
      x: 0.0
      y: 0.0
      z: 0.0
    rotation:
      x: 0.0
      y: 0.0
      z: 0.0
      w: 1.0
---
transforms:
- header:
    stamp:
      sec: 1690980105
      nanosec: 221231872
    frame_id: liosam_odom
  child_frame_id: liosam_base_link
  transform:
    translation:
      x: 10.947270393371582
      y: -23.963699340820312
      z: 0.5949285626411438
    rotation:
      x: 5.3742240807915e-311
      y: -9.058790771304e-310
      z: 6.318064905797e-311
      w: 1.0
---
transforms:
- header:
    stamp:
      sec: 1690980105
      nanosec: 444662850
    frame_id: map
  child_frame_id: odom
  transform:
    translation:
      x: 8.899484024139444
      y: -12.687455406489178
      z: 0.0
    rotation:
      x: -0.0
      y: -0.0
      z: 0.5313090443274555
      w: 0.8471780801082178
---
transforms:
- header:
    stamp:
      sec: 1690980105
      nanosec: 245946407
    frame_id: velodyne
  child_frame_id: liosam_map
  transform:
    translation:
      x: -3.51478882637837
      y: 26.098589879423013
      z: 0.5943058332984936
    rotation:
      x: 0.014151375844119674
      y: 0.032381112886850305
      z: -0.1454302438347339
      w: 0.9887371977770926
---
transforms:
- header:
    stamp:
      sec: 1690980105
      nanosec: 231249408
    frame_id: liosam_map
  child_frame_id: liosam_odom
  transform:
    translation:
      x: 0.0
      y: 0.0
      z: 0.0
    rotation:
      x: 0.0
      y: 0.0
      z: 0.0
      w: 1.0
---
transforms:
- header:
    stamp:
      sec: 1690980105
      nanosec: 231249408
    frame_id: liosam_odom
  child_frame_id: liosam_base_link
  transform:
    translation:
      x: 10.948116302490234
      y: -23.963241577148438
      z: 0.5951167345046997
    rotation:
      x: 5.362175762635e-311
      y: -9.05815295444905e-310
      z: 6.322894250408e-311
      w: 1.0
---
transforms:
- header:
    stamp:
      sec: 1690980105
      nanosec: 255989074
    frame_id: velodyne
  child_frame_id: liosam_map
  transform:
    translation:
      x: -3.51478882637837
      y: 26.098589879423013
      z: 0.5943058332984936
    rotation:
      x: 0.014151375844119674
      y: 0.032381112886850305
      z: -0.1454302438347339
      w: 0.9887371977770926
---
transforms:
- header:
    stamp:
      sec: 1690980105
      nanosec: 241268736
    frame_id: liosam_map
  child_frame_id: liosam_odom
  transform:
    translation:
      x: 0.0
      y: 0.0
      z: 0.0
    rotation:
      x: 0.0
      y: 0.0
      z: 0.0
      w: 1.0
---
transforms:
- header:
    stamp:
      sec: 1690980105
      nanosec: 241268736
    frame_id: liosam_odom
  child_frame_id: liosam_base_link
  transform:
    translation:
      x: 10.948959350585938
      y: -23.962804794311523
      z: 0.5952906608581543
    rotation:
      x: 5.3505921109154e-311
      y: -9.05766408521275e-310
      z: 6.3273843977375e-311
      w: 1.0
---
transforms:
- header:
    stamp:
      sec: 1690980105
      nanosec: 464635984
    frame_id: map
  child_frame_id: odom
  transform:
    translation:
      x: 8.899484024139444
      y: -12.687455406489178
      z: 0.0
    rotation:
      x: -0.0
      y: -0.0
      z: 0.5313090443274555
      w: 0.8471780801082178
---
transforms:
- header:
    stamp:
      sec: 1690980105
      nanosec: 251284224
    frame_id: liosam_map
  child_frame_id: liosam_odom
  transform:
    translation:
      x: 0.0
      y: 0.0
      z: 0.0
    rotation:
      x: 0.0
      y: 0.0
      z: 0.0
      w: 1.0
---
transforms:
- header:
    stamp:
      sec: 1690980105
      nanosec: 251284224
    frame_id: liosam_odom
  child_frame_id: liosam_base_link
  transform:
    translation:
      x: 10.949797630310059
      y: -23.962398529052734
      z: 0.5954468250274658
    rotation:
      x: 5.3469289439917e-311
      y: -9.0578879898637e-310
      z: 6.329911623862e-311
      w: 1.0
---
transforms:
- header:
    stamp:
      sec: 1690980105
      nanosec: 265996217
    frame_id: velodyne
  child_frame_id: liosam_map
  transform:
    translation:
      x: -3.51478882637837
      y: 26.098589879423013
      z: 0.5943058332984936
    rotation:
      x: 0.014151375844119674
      y: 0.032381112886850305
      z: -0.1454302438347339
      w: 0.9887371977770926
---
transforms:
- header:
    stamp:
      sec: 1690980105
      nanosec: 261689434
    frame_id: odom
  child_frame_id: base_link
  transform:
    translation:
      x: 24.535133650285516
      y: -6.203195058849609
      z: 0.0
    rotation:
      x: 0.0
      y: 0.0
      z: 0.26448191386933584
      w: 0.9643906455560491
---
transforms:
- header:
    stamp:
      sec: 1690980105
      nanosec: 276025056
    frame_id: velodyne
  child_frame_id: liosam_map
  transform:
    translation:
      x: -3.51478882637837
      y: 26.098589879423013
      z: 0.5943058332984936
    rotation:
      x: 0.014151375844119674
      y: 0.032381112886850305
      z: -0.1454302438347339
      w: 0.9887371977770926
---
transforms:
- header:
    stamp:
      sec: 1690980105
      nanosec: 261302016
    frame_id: liosam_map
  child_frame_id: liosam_odom
  transform:
    translation:
      x: 0.0
      y: 0.0
      z: 0.0
    rotation:
      x: 0.0
      y: 0.0
      z: 0.0
      w: 1.0
---
transforms:
- header:
    stamp:
      sec: 1690980105
      nanosec: 261302016
    frame_id: liosam_odom
  child_frame_id: liosam_base_link
  transform:
    translation:
      x: 10.950621604919434
      y: -23.962018966674805
      z: 0.595586359500885
    rotation:
      x: 5.3557147059175e-311
      y: -9.05904734839823e-310
      z: 6.331754529855e-311
      w: 1.0
---
transforms:
- header:
    stamp:
      sec: 1690980105
      nanosec: 484635072
    frame_id: map
  child_frame_id: odom
  transform:
    translation:
      x: 8.899484024139444
      y: -12.687455406489178
      z: 0.0
    rotation:
      x: -0.0
      y: -0.0
      z: 0.5313090443274555
      w: 0.8471780801082178
---
transforms:
- header:
    stamp:
      sec: 1690980105
      nanosec: 717130184
    frame_id: map
  child_frame_id: liosam_odom
  transform:
    translation:
      x: -12.662888162460789
      y: -11.148655332154714
      z: -0.5851134941819452
    rotation:
      x: -5.6467182510469e-310
      y: 7.2994726865825e-310
      z: 0.5547521121319965
      w: 0.8320156813937396
---
transforms:
- header:
    stamp:
      sec: 1690980105
      nanosec: 285946130
    frame_id: velodyne
  child_frame_id: liosam_map
  transform:
    translation:
      x: -3.51478882637837
      y: 26.098589879423013
      z: 0.5943058332984936
    rotation:
      x: 0.014151375844119674
      y: 0.032381112886850305
      z: -0.1454302438347339
      w: 0.9887371977770926
---
transforms:
- header:
    stamp:
      sec: 1690980105
      nanosec: 271321856
    frame_id: liosam_map
  child_frame_id: liosam_odom
  transform:
    translation:
      x: 0.0
      y: 0.0
      z: 0.0
    rotation:
      x: 0.0
      y: 0.0
      z: 0.0
      w: 1.0
---
transforms:
- header:
    stamp:
      sec: 1690980105
      nanosec: 271321856
    frame_id: liosam_odom
  child_frame_id: liosam_base_link
  transform:
    translation:
      x: 10.951431274414062
      y: -23.961647033691406
      z: 0.5957179069519043
    rotation:
      x: 5.366650274778e-311
      y: -9.06051219498633e-310
      z: 6.3357806783294e-311
      w: 1.0
---
transforms:
- header:
    stamp:
      sec: 1690980105
      nanosec: 296017169
    frame_id: velodyne
  child_frame_id: liosam_map
  transform:
    translation:
      x: -3.51478882637837
      y: 26.098589879423013
      z: 0.5943058332984936
    rotation:
      x: 0.014151375844119674
      y: 0.032381112886850305
      z: -0.1454302438347339
      w: 0.9887371977770926
---
transforms:
- header:
    stamp:
      sec: 1690980105
      nanosec: 281337600
    frame_id: liosam_map
  child_frame_id: liosam_odom
  transform:
    translation:
      x: 0.0
      y: 0.0
      z: 0.0
    rotation:
      x: 0.0
      y: 0.0
      z: 0.0
      w: 1.0
---
transforms:
- header:
    stamp:
      sec: 1690980105
      nanosec: 281337600
    frame_id: liosam_odom
  child_frame_id: liosam_base_link
  transform:
    translation:
      x: 10.952239990234375
      y: -23.961271286010742
      z: 0.5958541035652161
    rotation:
      x: 5.3694576853367e-311
      y: -9.06118307652555e-310
      z: 6.340477469303e-311
      w: 1.0
---
transforms:
- header:
    stamp:
      sec: 1690980104
      nanosec: 814078569
    frame_id: liosam_odom
  child_frame_id: lidar_link
  transform:
    translation:
      x: 10.901062965393066
      y: -23.974685668945312
      z: 0.5953630208969116
    rotation:
      x: -0.014981944952122217
      y: -0.03200861332110052
      z: 0.1449776263319601
      w: 0.988803558782968
---
transforms:
- header:
    stamp:
      sec: 1690980105
      nanosec: 504632242
    frame_id: map
  child_frame_id: odom
  transform:
    translation:
      x: 8.899484024139444
      y: -12.687455406489178
      z: 0.0
    rotation:
      x: -0.0
      y: -0.0
      z: 0.5313090443274555
      w: 0.8471780801082178
---
transforms:
- header:
    stamp:
      sec: 1690980105
      nanosec: 301689434
    frame_id: odom
  child_frame_id: base_link
  transform:
    translation:
      x: 24.538918084277192
      y: -6.2009504966734506
      z: 0.0
    rotation:
      x: 0.0
      y: 0.0
      z: 0.26448191386933584
      w: 0.9643906455560491
---
transforms:
- header:
    stamp:
      sec: 1690980105
      nanosec: 291355392
    frame_id: liosam_map
  child_frame_id: liosam_odom
  transform:
    translation:
      x: 0.0
      y: 0.0
      z: 0.0
    rotation:
      x: 0.0
      y: 0.0
      z: 0.0
      w: 1.0
---
transforms:
- header:
    stamp:
      sec: 1690980105
      nanosec: 291355392
    frame_id: liosam_odom
  child_frame_id: liosam_base_link
  transform:
    translation:
      x: 10.953064918518066
      y: -23.964275360107422
      z: 0.5934305787086487
    rotation:
      x: 5.4380166484097e-311
      y: -9.0641434922434e-310
      z: 6.2921087108154e-311
      w: 1.0
---
transforms:
- header:
    stamp:
      sec: 1690980105
      nanosec: 306015968
    frame_id: velodyne
  child_frame_id: liosam_map
  transform:
    translation:
      x: -3.5588305624089656
      y: 26.094239119156107
      z: 0.6313427335564021
    rotation:
      x: 0.014981944952122217
      y: 0.03200861332110052
      z: -0.1449776263319601
      w: 0.988803558782968
---
transforms:
- header:
    stamp:
      sec: 1690980105
      nanosec: 317839384
    frame_id: velodyne
  child_frame_id: liosam_map
  transform:
    translation:
      x: -3.5588305624089656
      y: 26.094239119156107
      z: 0.6313427335564021
    rotation:
      x: 0.014981944952122217
      y: 0.03200861332110052
      z: -0.1449776263319601
      w: 0.988803558782968
---
transforms:
- header:
    stamp:
      sec: 1690980105
      nanosec: 301375232
    frame_id: liosam_map
  child_frame_id: liosam_odom
  transform:
    translation:
      x: 0.0
      y: 0.0
      z: 0.0
    rotation:
      x: 0.0
      y: 0.0
      z: 0.0
      w: 1.0
---
transforms:
- header:
    stamp:
      sec: 1690980105
      nanosec: 301375232
    frame_id: liosam_odom
  child_frame_id: liosam_base_link
  transform:
    translation:
      x: 10.953878402709961
      y: -23.963916778564453
      z: 0.5935820937156677
    rotation:
      x: 5.4378791597635e-311
      y: -9.06449025596047e-310
      z: 6.2890866235847e-311
      w: 1.0
---
transforms:
- header:
    stamp:
      sec: 1690980105
      nanosec: 524638751
    frame_id: map
  child_frame_id: odom
  transform:
    translation:
      x: 8.899484024139444
      y: -12.687455406489178
      z: 0.0
    rotation:
      x: -0.0
      y: -0.0
      z: 0.5313090443274555
      w: 0.8471780801082178
---
transforms:
- header:
    stamp:
      sec: 1690980105
      nanosec: 326016426
    frame_id: velodyne
  child_frame_id: liosam_map
  transform:
    translation:
      x: -3.5588305624089656
      y: 26.094239119156107
      z: 0.6313427335564021
    rotation:
      x: 0.014981944952122217
      y: 0.03200861332110052
      z: -0.1449776263319601
      w: 0.988803558782968
---
transforms:
- header:
    stamp:
      sec: 1690980105
      nanosec: 325386806
    frame_id: base_arm
  child_frame_id: arm_link_1
  transform:
    translation:
      x: 0.0
      y: -0.039
      z: 0.0
    rotation:
      x: 0.5097995464615483
      y: -0.49000451265356093
      z: 0.49000264005857086
      w: 0.5098013463520639
- header:
    stamp:
      sec: 1690980105
      nanosec: 325386806
    frame_id: arm_link_1
  child_frame_id: arm_link_2
  transform:
    translation:
      x: 0.03
      y: 0.0
      z: 0.0725
    rotation:
      x: -0.3527912983833576
      y: -0.6128132965165898
      z: 0.3527922532972001
      w: 0.6128097497681799
- header:
    stamp:
      sec: 1690980105
      nanosec: 325386806
    frame_id: arm_link_2
  child_frame_id: arm_link_3
  transform:
    translation:
      x: 0.0
      y: -0.5545
      z: 0.0
    rotation:
      x: 0.695862120397292
      y: 0.12560949346698674
      z: 0.6958595822806931
      w: -0.12560894194002015
- header:
    stamp:
      sec: 1690980105
      nanosec: 325386806
    frame_id: arm_link_3
  child_frame_id: arm_link_4
  transform:
    translation:
      x: 0.128
      y: -0.0115
      z: 0.438
    rotation:
      x: -0.4071226869191324
      y: -0.4071211914767477
      z: -0.5781461358500098
      w: 0.5781440122045732
- header:
    stamp:
      sec: 1690980105
      nanosec: 325386806
    frame_id: chassis_link
  child_frame_id: flipper_link
  transform:
    translation:
      x: -0.032
      y: 0.0
      z: -0.1
    rotation:
      x: 0.0
      y: -0.19082252441973235
      z: 0.0
      w: 0.9816245535713135
- header:
    stamp:
      sec: 1690980105
      nanosec: 325386806
    frame_id: chassis_link
  child_frame_id: flipper_link_mimic
  transform:
    translation:
      x: -0.47
      y: 0.0
      z: -0.1
    rotation:
      x: 0.0
      y: -0.08820522255704558
      z: 0.0
      w: 0.996102323415452
---
transforms:
- header:
    stamp:
      sec: 1690980105
      nanosec: 311390720
    frame_id: liosam_map
  child_frame_id: liosam_odom
  transform:
    translation:
      x: 0.0
      y: 0.0
      z: 0.0
    rotation:
      x: 0.0
      y: 0.0
      z: 0.0
      w: 1.0
---
transforms:
- header:
    stamp:
      sec: 1690980105
      nanosec: 311390720
    frame_id: liosam_odom
  child_frame_id: liosam_base_link
  transform:
    translation:
      x: 10.954675674438477
      y: -23.963573455810547
      z: 0.5937278866767883
    rotation:
      x: 5.4417444089128e-311
      y: -9.0651070249286e-310
      z: 6.2838405280464e-311
      w: 1.0
---
transforms:
- header:
    stamp:
      sec: 1690980105
      nanosec: 717130184
    frame_id: map
  child_frame_id: liosam_odom
  transform:
    translation:
      x: -12.662888162460789
      y: -11.148655332154714
      z: -0.5851134941819452
    rotation:
      x: -5.6467182510469e-310
      y: 7.2994726865825e-310
      z: 0.5547521121319965
      w: 0.8320156813937396
---
transforms:
- header:
    stamp:
      sec: 1690980105
      nanosec: 336395978
    frame_id: velodyne
  child_frame_id: liosam_map
  transform:
    translation:
      x: -3.5588305624089656
      y: 26.094239119156107
      z: 0.6313427335564021
    rotation:
      x: 0.014981944952122217
      y: 0.03200861332110052
      z: -0.1449776263319601
      w: 0.988803558782968
---
transforms:
- header:
    stamp:
      sec: 1690980105
      nanosec: 321408000
    frame_id: liosam_map
  child_frame_id: liosam_odom
  transform:
    translation:
      x: 0.0
      y: 0.0
      z: 0.0
    rotation:
      x: 0.0
      y: 0.0
      z: 0.0
      w: 1.0
---
transforms:
- header:
    stamp:
      sec: 1690980105
      nanosec: 321408000
    frame_id: liosam_odom
  child_frame_id: liosam_base_link
  transform:
    translation:
      x: 10.955449104309082
      y: -23.963233947753906
      z: 0.5938589572906494
    rotation:
      x: 5.450729329309e-311
      y: -9.06607318356214e-310
      z: 6.282058925954e-311
      w: 1.0
---
transforms:
- header:
    stamp:
      sec: 1690980105
      nanosec: 544641034
    frame_id: map
  child_frame_id: odom
  transform:
    translation:
      x: 8.899484024139444
      y: -12.687455406489178
      z: 0.0
    rotation:
      x: -0.0
      y: -0.0
      z: 0.5313090443274555
      w: 0.8471780801082178
---
transforms:
- header:
    stamp:
      sec: 1690980105
      nanosec: 345985651
    frame_id: velodyne
  child_frame_id: liosam_map
  transform:
    translation:
      x: -3.5588305624089656
      y: 26.094239119156107
      z: 0.6313427335564021
    rotation:
      x: 0.014981944952122217
      y: 0.03200861332110052
      z: -0.1449776263319601
      w: 0.988803558782968
---
transforms:
- header:
    stamp:
      sec: 1690980105
      nanosec: 341689434
    frame_id: odom
  child_frame_id: base_link
  transform:
    translation:
      x: 24.542702518268868
      y: -6.198705934497292
      z: 0.0
    rotation:
      x: 0.0
      y: 0.0
      z: 0.26448191386933584
      w: 0.9643906455560491
---
transforms:
- header:
    stamp:
      sec: 1690980105
      nanosec: 331427328
    frame_id: liosam_map
  child_frame_id: liosam_odom
  transform:
    translation:
      x: 0.0
      y: 0.0
      z: 0.0
    rotation:
      x: 0.0
      y: 0.0
      z: 0.0
      w: 1.0
---
transforms:
- header:
    stamp:
      sec: 1690980105
      nanosec: 331427328
    frame_id: liosam_odom
  child_frame_id: liosam_base_link
  transform:
    translation:
      x: 10.95620059967041
      y: -23.962894439697266
      z: 0.5939716100692749
    rotation:
      x: 5.459328275695e-311
      y: -9.06709645154664e-310
      z: 6.284645025322e-311
      w: 1.0
---
transforms:
- header:
    stamp:
      sec: 1690980105
      nanosec: 355983257
    frame_id: velodyne
  child_frame_id: liosam_map
  transform:
    translation:
      x: -3.5588305624089656
      y: 26.094239119156107
      z: 0.6313427335564021
    rotation:
      x: 0.014981944952122217
      y: 0.03200861332110052
      z: -0.1449776263319601
      w: 0.988803558782968
---
transforms:
- header:
    stamp:
      sec: 1690980105
      nanosec: 341442560
    frame_id: liosam_map
  child_frame_id: liosam_odom
  transform:
    translation:
      x: 0.0
      y: 0.0
      z: 0.0
    rotation:
      x: 0.0
      y: 0.0
      z: 0.0
      w: 1.0
---
transforms:
- header:
    stamp:
      sec: 1690980105
      nanosec: 341442560
    frame_id: liosam_odom
  child_frame_id: liosam_base_link
  transform:
    translation:
      x: 10.956938743591309
      y: -23.962562561035156
      z: 0.594066858291626
    rotation:
      x: 5.4692974388483e-311
      y: -9.0682966044848e-310
      z: 6.290647087554e-311
      w: 1.0
---
transforms:
- header:
    stamp:
      sec: 1690980105
      nanosec: 564637095
    frame_id: map
  child_frame_id: odom
  transform:
    translation:
      x: 8.899484024139444
      y: -12.687455406489178
      z: 0.0
    rotation:
      x: -0.0
      y: -0.0
      z: 0.5313090443274555
      w: 0.8471780801082178
---
transforms:
- header:
    stamp:
      sec: 1690980105
      nanosec: 365981101
    frame_id: velodyne
  child_frame_id: liosam_map
  transform:
    translation:
      x: -3.5588305624089656
      y: 26.094239119156107
      z: 0.6313427335564021
    rotation:
      x: 0.014981944952122217
      y: 0.03200861332110052
      z: -0.1449776263319601
      w: 0.988803558782968
---
transforms:
- header:
    stamp:
      sec: 1690980105
      nanosec: 351459840
    frame_id: liosam_map
  child_frame_id: liosam_odom
  transform:
    translation:
      x: 0.0
      y: 0.0
      z: 0.0
    rotation:
      x: 0.0
      y: 0.0
      z: 0.0
      w: 1.0
---
transforms:
- header:
    stamp:
      sec: 1690980105
      nanosec: 351459840
    frame_id: liosam_odom
  child_frame_id: liosam_base_link
  transform:
    translation:
      x: 10.957661628723145
      y: -23.962238311767578
      z: 0.5941481590270996
    rotation:
      x: 5.4803051691863e-311
      y: -9.06960161664354e-310
      z: 6.2978942286645e-311
      w: 1.0
---
transforms:
- header:
    stamp:
      sec: 1690980105
      nanosec: 342616923
    frame_id: arm_link_5
  child_frame_id: Gripper
  transform:
    translation:
      x: 0.02025
      y: 0.034974
      z: 0.137
    rotation:
      x: 0.0
      y: 0.0
      z: 0.9860315669009099
      w: 0.1665585454875748
- header:
    stamp:
      sec: 1690980105
      nanosec: 342616923
    frame_id: arm_link_4
  child_frame_id: arm_link_5
  transform:
    translation:
      x: 0.087
      y: 0.0
      z: -0.0015
    rotation:
      x: 0.6213951242304179
      y: 0.33744619746741156
      z: 0.6213928417228686
      w: 0.33744495796059343
- header:
    stamp:
      sec: 1690980105
      nanosec: 342616923
    frame_id: arm_link_5
  child_frame_id: Gripper2
  transform:
    translation:
      x: 0.02025
      y: -0.035174
      z: 0.137
    rotation:
      x: 0.0
      y: 0.0
      z: 0.9860315669009099
      w: 0.1665585454875748
- header:
    stamp:
      sec: 1690980105
      nanosec: 342616923
    frame_id: arm_link_5
  child_frame_id: Gripper3
  transform:
    translation:
      x: -0.0405
      y: -0.00010001
      z: 0.137
    rotation:
      x: 0.0
      y: 0.0
      z: 0.9860315669009099
      w: 0.1665585454875748
---
transforms:
- header:
    stamp:
      sec: 1690980105
      nanosec: 376001119
    frame_id: velodyne
  child_frame_id: liosam_map
  transform:
    translation:
      x: -3.5588305624089656
      y: 26.094239119156107
      z: 0.6313427335564021
    rotation:
      x: 0.014981944952122217
      y: 0.03200861332110052
      z: -0.1449776263319601
      w: 0.988803558782968
---
transforms:
- header:
    stamp:
      sec: 1690980105
      nanosec: 361479168
    frame_id: liosam_map
  child_frame_id: liosam_odom
  transform:
    translation:
      x: 0.0
      y: 0.0
      z: 0.0
    rotation:
      x: 0.0
      y: 0.0
      z: 0.0
      w: 1.0
---
transforms:
- header:
    stamp:
      sec: 1690980105
      nanosec: 361479168
    frame_id: liosam_odom
  child_frame_id: liosam_base_link
  transform:
    translation:
      x: 10.958372116088867
      y: -23.9619197845459
      z: 0.5942243337631226
    rotation:
      x: 5.4966732387293e-311
      y: -9.0713667347243e-310
      z: 6.3065865947516e-311
      w: 1.0
---
transforms:
- header:
    stamp:
      sec: 1690980105
      nanosec: 584633873
    frame_id: map
  child_frame_id: odom
  transform:
    translation:
      x: 8.899484024139444
      y: -12.687455406489178
      z: 0.0
    rotation:
      x: -0.0
      y: -0.0
      z: 0.5313090443274555
      w: 0.8471780801082178
---
transforms:
- header:
    stamp:
      sec: 1690980105
      nanosec: 817993164
    frame_id: map
  child_frame_id: liosam_odom
  transform:
    translation:
      x: -12.662888162460789
      y: -11.148655332154714
      z: -0.5851134941819452
    rotation:
      x: -5.6467182510469e-310
      y: 7.2994726865825e-310
      z: 0.5547521121319965
      w: 0.8320156813937396
---
transforms:
- header:
    stamp:
      sec: 1690980105
      nanosec: 385980844
    frame_id: velodyne
  child_frame_id: liosam_map
  transform:
    translation:
      x: -3.5588305624089656
      y: 26.094239119156107
      z: 0.6313427335564021
    rotation:
      x: 0.014981944952122217
      y: 0.03200861332110052
      z: -0.1449776263319601
      w: 0.988803558782968
---
transforms:
- header:
    stamp:
      sec: 1690980105
      nanosec: 371494400
    frame_id: liosam_map
  child_frame_id: liosam_odom
  transform:
    translation:
      x: 0.0
      y: 0.0
      z: 0.0
    rotation:
      x: 0.0
      y: 0.0
      z: 0.0
      w: 1.0
---
transforms:
- header:
    stamp:
      sec: 1690980105
      nanosec: 371494400
    frame_id: liosam_odom
  child_frame_id: liosam_base_link
  transform:
    translation:
      x: 10.959074974060059
      y: -23.961606979370117
      z: 0.5943059325218201
    rotation:
      x: 5.5108356843145e-311
      y: -9.0728987221568e-310
      z: 6.312760212461e-311
      w: 1.0
---
transforms:
- header:
    stamp:
      sec: 1690980105
      nanosec: 381689434
    frame_id: odom
  child_frame_id: base_link
  transform:
    translation:
      x: 24.546486952260544
      y: -6.196461372321134
      z: 0.0
    rotation:
      x: 0.0
      y: 0.0
      z: 0.26448191386933584
      w: 0.9643906455560491
---
transforms:
- header:
    stamp:
      sec: 1690980105
      nanosec: 396004915
    frame_id: velodyne
  child_frame_id: liosam_map
  transform:
    translation:
      x: -3.5588305624089656
      y: 26.094239119156107
      z: 0.6313427335564021
    rotation:
      x: 0.014981944952122217
      y: 0.03200861332110052
      z: -0.1449776263319601
      w: 0.988803558782968
---
transforms:
- header:
    stamp:
      sec: 1690980105
      nanosec: 381511680
    frame_id: liosam_map
  child_frame_id: liosam_odom
  transform:
    translation:
      x: 0.0
      y: 0.0
      z: 0.0
    rotation:
      x: 0.0
      y: 0.0
      z: 0.0
      w: 1.0
---
transforms:
- header:
    stamp:
      sec: 1690980105
      nanosec: 381511680
    frame_id: liosam_odom
  child_frame_id: liosam_base_link
  transform:
    translation:
      x: 10.959782600402832
      y: -23.96129608154297
      z: 0.5943976640701294
    rotation:
      x: 5.5223139934877e-311
      y: -9.0741575648173e-310
      z: 6.3129239611753e-311
      w: 1.0
---
transforms:
- header:
    stamp:
      sec: 1690980105
      nanosec: 604632690
    frame_id: map
  child_frame_id: odom
  transform:
    translation:
      x: 8.899484024139444
      y: -12.687455406489178
      z: 0.0
    rotation:
      x: -0.0
      y: -0.0
      z: 0.5313090443274555
      w: 0.8471780801082178
---
transforms:
- header:
    stamp:
      sec: 1690980105
      nanosec: 405984401
    frame_id: velodyne
  child_frame_id: liosam_map
  transform:
    translation:
      x: -3.5588305624089656
      y: 26.094239119156107
      z: 0.6313427335564021
    rotation:
      x: 0.014981944952122217
      y: 0.03200861332110052
      z: -0.1449776263319601
      w: 0.988803558782968
---
transforms:
- header:
    stamp:
      sec: 1690980105
      nanosec: 391530752
    frame_id: liosam_map
  child_frame_id: liosam_odom
  transform:
    translation:
      x: 0.0
      y: 0.0
      z: 0.0
    rotation:
      x: 0.0
      y: 0.0
      z: 0.0
      w: 1.0
---
transforms:
- header:
    stamp:
      sec: 1690980105
      nanosec: 391530752
    frame_id: liosam_odom
  child_frame_id: liosam_base_link
  transform:
    translation:
      x: 10.960492134094238
      y: -23.960973739624023
      z: 0.5944969058036804
    rotation:
      x: 5.5323504502237e-311
      y: -9.075195176285e-310
      z: 6.312350813388e-311
      w: 1.0
---
transforms:
- header:
    stamp:
      sec: 1690980105
      nanosec: 416011810
    frame_id: velodyne
  child_frame_id: liosam_map
  transform:
    translation:
      x: -3.5588305624089656
      y: 26.094239119156107
      z: 0.6313427335564021
    rotation:
      x: 0.014981944952122217
      y: 0.03200861332110052
      z: -0.1449776263319601
      w: 0.988803558782968
---
transforms:
- header:
    stamp:
      sec: 1690980105
      nanosec: 401546240
    frame_id: liosam_map
  child_frame_id: liosam_odom
  transform:
    translation:
      x: 0.0
      y: 0.0
      z: 0.0
    rotation:
      x: 0.0
      y: 0.0
      z: 0.0
      w: 1.0
---
transforms:
- header:
    stamp:
      sec: 1690980105
      nanosec: 401546240
    frame_id: liosam_odom
  child_frame_id: liosam_base_link
  transform:
    translation:
      x: 10.961197853088379
      y: -23.960641860961914
      z: 0.5945973992347717
    rotation:
      x: 5.5416966041864e-311
      y: -9.07623829169103e-310
      z: 6.314551011251e-311
      w: 1.0
---
transforms:
- header:
    stamp:
      sec: 1690980105
      nanosec: 624633813
    frame_id: map
  child_frame_id: odom
  transform:
    translation:
      x: 8.899484024139444
      y: -12.687455406489178
      z: 0.0
    rotation:
      x: -0.0
      y: -0.0
      z: 0.5313090443274555
      w: 0.8471780801082178
---
transforms:
- header:
    stamp:
      sec: 1690980105
      nanosec: 425381429
    frame_id: base_arm
  child_frame_id: arm_link_1
  transform:
    translation:
      x: 0.0
      y: -0.039
      z: 0.0
    rotation:
      x: 0.5097995464615483
      y: -0.49000451265356093
      z: 0.49000264005857086
      w: 0.5098013463520639
- header:
    stamp:
      sec: 1690980105
      nanosec: 425381429
    frame_id: arm_link_1
  child_frame_id: arm_link_2
  transform:
    translation:
      x: 0.03
      y: 0.0
      z: 0.0725
    rotation:
      x: -0.3527912983833576
      y: -0.6128132965165898
      z: 0.3527922532972001
      w: 0.6128097497681799
- header:
    stamp:
      sec: 1690980105
      nanosec: 425381429
    frame_id: arm_link_2
  child_frame_id: arm_link_3
  transform:
    translation:
      x: 0.0
      y: -0.5545
      z: 0.0
    rotation:
      x: 0.695862120397292
      y: 0.12560949346698674
      z: 0.6958595822806931
      w: -0.12560894194002015
- header:
    stamp:
      sec: 1690980105
      nanosec: 425381429
    frame_id: arm_link_3
  child_frame_id: arm_link_4
  transform:
    translation:
      x: 0.128
      y: -0.0115
      z: 0.438
    rotation:
      x: -0.4071226869191324
      y: -0.4071211914767477
      z: -0.5781461358500098
      w: 0.5781440122045732
- header:
    stamp:
      sec: 1690980105
      nanosec: 425381429
    frame_id: chassis_link
  child_frame_id: flipper_link
  transform:
    translation:
      x: -0.032
      y: 0.0
      z: -0.1
    rotation:
      x: 0.0
      y: -0.19082252441973235
      z: 0.0
      w: 0.9816245535713135
- header:
    stamp:
      sec: 1690980105
      nanosec: 425381429
    frame_id: chassis_link
  child_frame_id: flipper_link_mimic
  transform:
    translation:
      x: -0.47
      y: 0.0
      z: -0.1
    rotation:
      x: 0.0
      y: -0.08820522255704558
      z: 0.0
      w: 0.996102323415452
---
transforms:
- header:
    stamp:
      sec: 1690980105
      nanosec: 427193164
    frame_id: velodyne
  child_frame_id: liosam_map
  transform:
    translation:
      x: -3.5588305624089656
      y: 26.094239119156107
      z: 0.6313427335564021
    rotation:
      x: 0.014981944952122217
